{
"above-the-poconos-skydivers": {
  "label": "Above the Poconos Skydivers",
  "burble_dz_id": 14331,
  "burble_public_url": "https://dzm.burblesoft.com/jumper_manifest_public?dz_id=14331",
  "country": "US",
  "state": "PA",
  "city": "Hazleton",
  "icao": "KHZL",
  "lat": 40.98677,
  "lon": -75.99470,
  "radar": "KBGM",
  "radar_station": "KBGM",
  "notes": null,
  "name": "Above the Poconos Skydivers",
  "key": "above-the-poconos-skydivers"
},
"action-flight-aviation-llc-skydive": {
  "burble_dz_id": 12671,
  "burble_public_url": "https://dzm.burblesoft.com/jumper_manifest_public?dz_id=12671",
  "label": "ACTION FLIGHT AVIATION LLC - Skydive",
  "country": "US",
  "state": "CA",
  "city": "Lodi",
  "icao": "1O3",
  "lat": 38.20240,
  "lon": -121.26830,
  "radar": "KDAX",
  "radar_station": "KDAX",
  "notes": null,
  "name": "ACTION FLIGHT AVIATION LLC - Skydive",
  "key": "action-flight-aviation-llc-skydive"
},
"aerohio-skydiving": {
  "burble_dz_id": 5415,
  "burble_public_url": "https://dzm.burblesoft.com/jumper_manifest_public?dz_id=5415",
  "label": "AerOhio Skydiving",
  "country": "US",
  "state": "OH",
  "city": "Ashland",
  "icao": "3G4",
  "lat": 40.90250,
  "lon": -82.25560,
  "radar": "KCLE",
  "radar_station": "KCLE",
  "notes": null,
  "name": "AerOhio Skydiving",
  "key": "aerohio-skydiving"
},
"bay-area-skydiving": {
  "burble_dz_id": 2993,
  "burble_public_url": "https://dzm.burblesoft.com/jumper_manifest_public?dz_id=2993",
  "label": "Bay Area Skydiving",
  "country": "US",
  "state": "CA",
  "city": "Byron",
  "icao": "C83",
  "lat": 37.82830,
  "lon": -121.62670,
  "radar": "KMUX",
  "radar_station": "KMUX",
  "notes": null,
  "name": "Bay Area Skydiving",
  "key": "bay-area-skydiving"
},
"blue-sky-ranch": {
  "burble_dz_id": 2023,
  "burble_public_url": "https://dzm.burblesoft.com/jumper_manifest_public?dz_id=2023",
  "label": "Blue Sky Ranch",
  "country": "US",
  "state": "NY",
  "city": "Gardiner",
  "icao": "5NY5",
  "lat": 41.666667,
  "lon": -74.149444,
  "radar": "KENX",
  "radar_station": "KENX",
  "notes": null,
  "name": "Blue Sky Ranch",
  "key": "blue-sky-ranch"
},
"boston-skydive-center": {
  "burble_dz_id": 12441,
  "burble_public_url": "https://dzm.burblesoft.com/jumper_manifest_public?dz_id=12441",
  "label": "Boston Skydive Center",
  "country": "US",
  "state": "RI",
  "city": "Smithfield",
  "icao": "KSFZ",
  "lat": 41.920556,
  "lon": -71.491389,
  "radar": "KBOX",
  "radar_station": "KBOX",
  "notes": null,
  "name": "Boston Skydive Center",
  "key": "boston-skydive-center"
},
"cadence-sky-sports": {
  "burble_dz_id": 348,
  "burble_public_url": "https://dzm.burblesoft.com/jumper_manifest_public?dz_id=348",
  "label": "Cadence Sky Sports",
  "country": "US",
  "state": "AZ",
  "city": "Eloy",
  "icao": "KE60",
  "lat": 32.80701,
  "lon": -111.58679,
  "radar": "KEMX",
  "radar_station": "KEMX",
  "notes": null,
  "name": "Cadence Sky Sports",
  "key": "cadence-sky-sports"
},
"canton-air-sports": {
  "burble_dz_id": 2973,
  "burble_public_url": "https://dzm.burblesoft.com/jumper_manifest_public?dz_id=2973",
  "label": "Canton Air Sports",
  "country": "US",
  "state": "OH",
  "city": "Akron",
  "icao": "KAKR",
  "lat": 41.0375,
  "lon": -81.4669,
  "radar": "KCLE",
  "radar_station": "KCLE",
  "notes": null,
  "name": "Canton Air Sports",
  "key": "canton-air-sports"
},
"cleveland-skydiving-center": {
  "burble_dz_id": 3481,
  "burble_public_url": "https://dzm.burblesoft.com/jumper_manifest_public?dz_id=3481",
  "label": "Cleveland Skydiving Center",
  "country": "US",
  "state": "OH",
  "city": "Jefferson",
  "icao": "7D8",
  "lat": 41.35120,
  "lon": -81.09950,
  "radar": "KCLE",
  "radar_station": "KCLE",
  "notes": null,
  "name": "Cleveland Skydiving Center",
  "key": "cleveland-skydiving-center"
},
"connecticut-parachutists-inc": {
  "burble_dz_id": 16141,
  "burble_public_url": "https://dzm.burblesoft.com/jumper_manifest_public?dz_id=16141",
  "label": "Connecticut Parachutists Inc",
  "country": "US",
  "state": "CT",
  "city": "Ellington",
  "icao": "7B9",
  "lat": 41.92542,
  "lon": -72.45711,
  "radar": "KBOX",
  "radar_station": "KBOX",
  "notes": null,
  "name": "Connecticut Parachutists Inc",
  "key": "connecticut-parachutists-inc"
},
"crystal-coast-skydiving-llc": {
  "burble_dz_id": 7411,
  "burble_public_url": "https://dzm.burblesoft.com/jumper_manifest_public?dz_id=7411",
  "label": "Crystal Coast Skydiving LLC",
  "country": "US",
  "state": "NC",
  "city": "Beaufort",
  "icao": "KMRH",
  "lat": 34.7336,
  "lon": -76.6606,
  "radar": "KMHX",
  "radar_station": "KMHX",
  "notes": null,
  "name": "Crystal Coast Skydiving LLC",
  "key": "crystal-coast-skydiving-llc"
},
"chicagoland-skydiving-center": {
  "burble_dz_id": 408,
  "burble_public_url": "https://dzm.burblesoft.com/jumper_manifest_public?dz_id=408",
  "label": "Chicagoland Skydiving Center",
  "country": "US",
  "state": "IL",
  "city": "Rochelle",
  "icao": "KRPJ",
  "lat": 41.892500,
  "lon": -89.079444,
  "radar": "KLOT",
  "radar_station": "KLOT",
  "notes": null,
  "name": "Chicagoland Skydiving Center",
  "key": "chicagoland-skydiving-center"
},
"dallas-skydive-center": {
  "burble_dz_id": 2271,
  "burble_public_url": "https://dzm.burblesoft.com/jumper_manifest_public?dz_id=2271",
  "label": "Dallas Skydive Center",
  "country": "US",
  "state": "TX",
  "city": "Caddo Mills",
  "icao": "7F3",
  "lat": 33.03622,
  "lon": -96.24314,
  "radar": "KFWS",
  "radar_station": "KFWS",
  "notes": null,
  "name": "Dallas Skydive Center",
  "key": "dallas-skydive-center"
},
"des-moines-skydivers": {
  "burble_dz_id": 47,
  "burble_public_url": "https://dzm.burblesoft.com/jumper_manifest_public?dz_id=47",
  "label": "Des Moines Skydivers",
  "country": "US",
  "state": "IA",
  "city": "Newton",
  "icao": "KTNU",
  "lat": 41.6744,
  "lon": -93.0217,
  "radar": "KDMX",
  "radar_station": "KDMX",
  "notes": null,
  "name": "Des Moines Skydivers",
  "key": "des-moines-skydivers"
},
"dzone-boise": {
  "burble_dz_id": 731,
  "burble_public_url": "https://dzm.burblesoft.com/jumper_manifest_public?dz_id=731",
  "label": "DZONE® - Boise",
  "country": "US",
  "state": "ID",
  "city": "Caldwell",
  "icao": "KEUL",
  "lat": 43.6419,
  "lon": -116.6350,
  "radar": "KCBX",
  "radar_station": "KCBX",
  "notes": null,
  "name": "DZONE® - Boise",
  "key": "dzone-boise"
},
"dzone-bozeman": {
  "burble_dz_id": 871,
  "burble_public_url": "https://dzm.burblesoft.com/jumper_manifest_public?dz_id=871",
  "label": "DZONE® Bozeman",
  "country": "US",
  "state": "MT",
  "city": "Manhattan",
  "icao": "KHZR",
  "lat": 45.8299,
  "lon": -111.2660,
  "radar": "KTFX",
  "radar_station": "KTFX",
  "notes": null,
  "name": "DZONE® Bozeman",
  "key": "dzone-bozeman"
},
"eugene-skydivers": {
  "burble_dz_id": 6123,
  "burble_public_url": "https://dzm.burblesoft.com/jumper_manifest_public?dz_id=6123",
  "label": "Eugene Skydivers",
  "country": "US",
  "state": "OR",
  "city": "Creswell",
  "icao": "77S",
  "lat": 43.9176,
  "lon": -123.0056,
  "radar": "KRTX",
  "radar_station": "KRTX",
  "notes": null,
  "name": "Eugene Skydivers",
  "key": "eugene-skydivers"
},
"florida-skydive": {
  "burble_dz_id": 4995,
  "burble_public_url": "https://dzm.burblesoft.com/jumper_manifest_public?dz_id=4995",
  "label": "Florida Skydive",
  "country": "US",
  "state": "FL",
  "city": "Green Cove Springs",
  "icao": "KRFG",
  "lat": 29.9933,
  "lon": -81.6784,
  "radar": "KJAX",
  "radar_station": "KJAX",
  "notes": null,
  "name": "Florida Skydive",
  "key": "florida-skydive"
},
"flying-devil": {
  "burble_dz_id": 10381,
  "burble_public_url": "https://dzm.burblesoft.com/jumper_manifest_public?dz_id=10381",
  "label": "Flying-Devil",
  "country": "US",
  "state": "TX",
  "city": "Castroville",
  "icao": "KCVB",
  "lat": 29.3416,
  "lon": -98.8503,
  "radar": "KEWX",
  "radar_station": "KEWX",
  "notes": null,
  "name": "Flying-Devil",
  "key": "flying-devil"
},
"fyrosity": {
  "burble_dz_id": 317,
  "burble_public_url": "https://dzm.burblesoft.com/jumper_manifest_public?dz_id=317",
  "label": "Fyrosity®",
  "country": "US",
  "state": "NV",
  "city": "Overton",
  "icao": "U08",
  "lat": 36.568167,
  "lon": -114.443333,
  "radar": "KESX",
  "radar_station": "KESX",
  "notes": null,
  "name": "Fyrosity®",
  "key": "fyrosity"
},
"gateway-skydiving-center": {
  "burble_dz_id": 13446,
  "burble_public_url": "https://dzm.burblesoft.com/jumper_manifest_public?dz_id=13446",
  "label": "Gateway Skydiving Center",
  "country": "US",
  "state": "IL",
  "city": "Alton",
  "icao": "KALN",
  "lat": 38.8903,
  "lon": -90.0460,
  "radar": "KLSX",
  "radar_station": "KLSX",
  "notes": null,
  "name": "Gateway Skydiving Center",
  "key": "gateway-skydiving-center"
},
"go-skydive-nashville": {
  "burble_dz_id": 15261,
  "burble_public_url": "https://dzm.burblesoft.com/jumper_manifest_public?dz_id=15261",
  "label": "Go Skydive Nashville",
  "country": "US",
  "state": "TN",
  "city": "Humboldt",
  "icao": "M53",
  "lat": 35.8090,
  "lon": -88.9156,
  "radar": "KNQA",
  "radar_station": "KNQA",
  "notes": null,
  "name": "Go Skydive Nashville",
  "key": "go-skydive-nashville"
},
"hillman-farm-skydivers-inc": {
  "burble_dz_id": 13766,
  "burble_public_url": "https://dzm.burblesoft.com/jumper_manifest_public?dz_id=13766",
  "label": "Hillman Farm Skydivers Inc",
  "country": "US",
  "state": "TN",
  "city": "Murfreesboro",
  "icao": "KMBT",
  "lat": 35.8778,
  "lon": -86.3774,
  "radar": "KOHX",
  "radar_station": "KOHX",
  "notes": null,
  "name": "Hillman Farm Skydivers Inc",
  "key": "hillman-farm-skydivers-inc"
},
"jump-omaha-skydiving": {
  "burble_dz_id": 12031,
  "burble_public_url": "https://dzm.burblesoft.com/jumper_manifest_public?dz_id=12031",
  "label": "Jump Omaha Skydiving",
  "country": "US",
  "state": "NE",
  "city": "Fremont",
  "icao": "KFET",
  "lat": 41.4491,
  "lon": -96.5202,
  "radar": "KOAX",
  "radar_station": "KOAX",
  "notes": null,
  "name": "Jump Omaha Skydiving",
  "key": "jump-omaha-skydiving"
},
"jumptn": {
  "burble_dz_id": 230,
  "burble_public_url": "https://dzm.burblesoft.com/jumper_manifest_public?dz_id=230",
  "label": "JumpTN",
  "country": "US",
  "state": "TN",
  "city": "Tullahoma",
  "icao": "KTHA",
  "lat": 35.3801,
  "lon": -86.2464,
  "radar": "KOHX",
  "radar_station": "KOHX",
  "notes": null,
  "name": "JumpTN",
  "key": "jumptn"
},
"jumptown": {
  "burble_dz_id": 417,
  "burble_public_url": "https://dzm.burblesoft.com/jumper_manifest_public?dz_id=417",
  "label": "Jumptown",
  "country": "US",
  "state": "MA",
  "city": "Orange",
  "icao": "KORE",
  "lat": 42.5709,
  "lon": -72.2886,
  "radar": "KBOX",
  "radar_station": "KBOX",
  "notes": null,
  "name": "Jumptown",
  "key": "jumptown"
},
"midwest-freefall-spc-inc": {
  "burble_dz_id": 3113,
  "burble_public_url": "https://dzm.burblesoft.com/jumper_manifest_public?dz_id=3113",
  "label": "Midwest Freefall SPC Inc.",
  "country": "US",
  "state": "IL",
  "city": "Hinkley",
  "icao": "0C2",
  "lat": 41.7692,
  "lon": -88.6945,
  "radar": "KLOT",
  "radar_station": "KLOT",
  "notes": null,
  "name": "Midwest Freefall SPC Inc.",
  "key": "midwest-freefall-spc-inc"
},
"music-city-skydiving": {
  "burble_dz_id": 208,
  "burble_public_url": "https://dzm.burblesoft.com/jumper_manifest_public?dz_id=208",
  "label": "Music City Skydiving",
  "country": "US",
  "state": "TN",
  "city": "Tullahoma",
  "icao": "KTHA",
  "lat": 35.3801,
  "lon": -86.2464,
  "radar": "KOHX",
  "radar_station": "KOHX",
  "notes": null,
  "name": "Music City Skydiving",
  "key": "music-city-skydiving"
},
"ozarks-skydive-center": {
  "burble_dz_id": 1311,
  "burble_public_url": "https://dzm.burblesoft.com/jumper_manifest_public?dz_id=1311",
  "label": "Ozarks Skydive Center",
  "country": "US",
  "state": "MO",
  "city": "West Plains",
  "icao": "KUNO",
  "lat": 36.8784,
  "lon": -91.9027,
  "radar": "KSGF",
  "radar_station": "KSGF",
  "notes": null,
  "name": "Ozarks Skydive Center",
  "key": "ozarks-skydive-center"
},
 "pacific-northwest-skydiving-center": {
    "burble_dz_id": 8461,
    "burble_public_url": "https://dzm.burblesoft.com/jumper_manifest_public?dz_id=8461",
    "label": "Pacific Northwest Skydiving Center",
    "country": "US",
    "state": "OR",
    "city": "Mulino",
    "icao": "4S9",
    "lat": 45.2249,
    "lon": -122.6468,
    "radar": "KRTX",
    "radar_station": "KRTX",
    "notes": null,
    "name": "Pacific Northwest Skydiving Center",
    "key": "pacific-northwest-skydiving-center"
  },
  "piedmont-skydiving": {
    "burble_dz_id": 292,
    "burble_public_url": "https://dzm.burblesoft.com/jumper_manifest_public?dz_id=292",
    "label": "Piedmont Skydiving",
    "country": "US",
    "state": "NC",
    "city": "Salisbury",
    "icao": "KRUQ",
    "lat": 35.64,
    "lon": -80.52,
    "radar": "KGSP",
    "radar_station": "KGSP",
    "notes": null,
    "name": "Piedmont Skydiving",
    "key": "piedmont-skydiving"
  },
  "seven-hills-skydivers": {
    "burble_dz_id": 13976,
    "burble_public_url": "https://dzm.burblesoft.com/jumper_manifest_public?dz_id=13976",
    "label": "Seven Hills Skydivers",
    "country": "US",
    "state": "WI",
    "city": "Marshall",
    "icao": "WI97",
    "lat": 43.1574,
    "lon": -89.062,
    "radar": "KMKX",
    "radar_station": "KMKX",
    "notes": null,
    "name": "Seven Hills Skydivers",
    "key": "seven-hills-skydivers"
  },
  "silicon-valley-skydiving": {
    "burble_dz_id": 4763,
    "burble_public_url": "https://dzm.burblesoft.com/jumper_manifest_public?dz_id=4763",
    "label": "Silicon Valley Skydiving",
    "country": "US",
    "state": "CA",
    "city": "San Martin",
    "icao": "E16",
    "lat": 37.082,
    "lon": -121.597,
    "radar": "KMUX",
    "radar_station": "KMUX",
    "notes": null,
    "name": "Silicon Valley Skydiving",
    "key": "silicon-valley-skydiving"
  },
"skydance-skydiving": {
  "label": "SkyDance Skydiving",
  "burble_dz_id": 10152,
  "burble_public_url": "https://dzm.burblesoft.com/jumper_manifest_public?dz_id=10152",
  "country": "US",
  "state": "CA",
  "city": "Davis",
  "icao": "KDWA",
  "lat": 38.5791,
  "lon": -121.8574,
  "radar": "KDAX",
  "radar_station": "KDAX",
  "notes": null,
  "name": "SkyDance Skydiving",
  "key": "skydance-skydiving"
},
  "skydive-adventures": {
    "burble_dz_id": 4985,
    "burble_public_url": "https://dzm.burblesoft.com/jumper_manifest_public?dz_id=4985",
    "label": "Skydive Adventures",
    "country": "US",
    "state": "MN",
    "city": "Luverne",
    "icao": "KLYV",
    "lat": 43.6214,
    "lon": -96.2142,
    "radar": "KFSD",
    "radar_station": "KFSD",
    "notes": null,
    "name": "Skydive Adventures",
    "key": "skydive-adventures"
  },

  "skydive-alabama": {
    "burble_dz_id": 11,
    "burble_public_url": "https://dzm.burblesoft.com/jumper_manifest_public?dz_id=11",
    "label": "Skydive Alabama",
    "country": "US",
    "state": "AL",
    "city": "Cullman",
    "icao": "KCMD",
    "lat": 34.2686,
    "lon": -86.8583,
    "radar": "KHTX",
    "radar_station": "KHTX",
    "notes": null,
    "name": "Skydive Alabama",
    "key": "skydive-alabama"
  },

  "skydive-atlanta": {
    "burble_dz_id": 6673,
    "burble_public_url": "https://dzm.burblesoft.com/jumper_manifest_public?dz_id=6673",
    "label": "Skydive Atlanta",
    "country": "US",
    "state": "GA",
    "city": "Thomaston",
    "icao": "KOPN",
    "lat": 32.9559,
    "lon": -84.2632,
    "radar": "KFFC",
    "radar_station": "KFFC",
    "notes": null,
    "name": "Skydive Atlanta",
    "key": "skydive-atlanta"
  },

  "skydive-bend": {
    "burble_dz_id": 15101,
    "burble_public_url": "https://dzm.burblesoft.com/jumper_manifest_public?dz_id=15101",
    "label": "Skydive Bend",
    "country": "US",
    "state": "OR",
    "city": "Madras",
    "icao": "S33",
    "lat": 44.6715,
    "lon": -121.1559,
    "radar": "KPDT",
    "radar_station": "KPDT",
    "notes": null,
    "name": "Skydive Bend",
    "key": "skydive-bend"
  },
"skydive-california": {
  "label": "Skydive California",
  "burble_dz_id": 10018,
  "burble_public_url": "https://dzm.burblesoft.com/jumper_manifest_public?dz_id=10018",
  "country": "US",
  "state": "CA",
  "city": "Tracy",
  "icao": "CA74",
  "lat": 37.7310,
  "lon": -121.3360,
  "radar": "KMUX",
  "radar_station": "KMUX",
  "notes": null,
  "name": "Skydive California",
  "key": "skydive-california"
},
"skydive-carolina": {
  "label": "Skydive Carolina",
  "burble_dz_id": 10007,
  "burble_public_url": "https://dzm.burblesoft.com/jumper_manifest_public?dz_id=10007",
  "country": "US",
  "state": "SC",
  "city": "Chester",
  "icao": "KDCM",
  "lat": 34.7893,
  "lon": -81.1958,
  "radar": "KCAE",
  "radar_station": "KCAE",
  "notes": null,
  "name": "Skydive Carolina",
  "key": "skydive-carolina"
},
  "skydive-chesapeake": {
    "burble_dz_id": 14961,
    "burble_public_url": "https://dzm.burblesoft.com/jumper_manifest_public?dz_id=14961",
    "label": "Skydive Chesapeake",
    "country": "US",
    "state": "MD",
    "city": "Ridgely",
    "icao": "KRJD",
    "lat": 38.9702,
    "lon": -75.8663,
    "radar": "KDOX",
    "radar_station": "KDOX",
    "notes": null,
    "name": "Skydive Chesapeake",
    "key": "skydive-chesapeake"
  },
"skydive-chicago": {
  "label": "Skydive Chicago",
  "burble_dz_id": 10023,
  "burble_public_url": "https://dzm.burblesoft.com/jumper_manifest_public?dz_id=10023",
  "country": "US",
  "state": "IL",
  "city": "Ottawa",
  "icao": "8N2",
  "lat": 41.3998,
  "lon": -88.7939,
  "radar": "KLOT",
  "radar_station": "KLOT",
  "notes": null,
  "name": "Skydive Chicago",
  "key": "skydive-chicago"
},
  "skydive-cincinnati": {
    "burble_dz_id": 419,
    "burble_public_url": "https://dzm.burblesoft.com/jumper_manifest_public?dz_id=419",
    "label": "Skydive Cincinnati",
    "country": "US",
    "state": "OH",
    "city": "Waynesville",
    "icao": "I67",
    "lat": 39.5581,
    "lon": -84.2606,
    "radar": "KILN",
    "radar_station": "KILN",
    "notes": null,
    "name": "Skydive Cincinnati",
    "key": "skydive-cincinnati"
  },
"skydive-city-zephyrhills": {
  "label": "Skydive City Zephyrhills",
  "burble_dz_id": 10545,
  "burble_public_url": "https://dzm.burblesoft.com/jumper_manifest_public?dz_id=10545",
  "country": "US",
  "state": "FL",
  "city": "Zephyrhills",
  "icao": "KZPH",
  "lat": 28.2282,
  "lon": -82.1559,
  "radar": "KTBW",
  "radar_station": "KTBW",
  "notes": null,
  "name": "Skydive City Zephyrhills",
  "key": "skydive-city-zephyrhills"
},
"skydive-coastal-carolinas": {
  "burble_dz_id": 2521,
  "burble_public_url": "https://dzm.burblesoft.com/jumper_manifest_public?dz_id=2521",
  "label": "Skydive Coastal Carolinas",
  "country": "US",
  "state": "SC",
  "city": "Aynor",
  "icao": "3J1",
  "lat": 33.9926,
  "lon": -79.3056,
  "radar": "KLTX",
  "radar_station": "KLTX",
  "notes": null,
  "name": "Skydive Coastal Carolinas",
  "key": "skydive-coastal-carolinas"
},
"skydive-colorado": {
  "burble_dz_id": 8551,
  "burble_public_url": "https://dzm.burblesoft.com/jumper_manifest_public?dz_id=8551",
  "label": "Skydive Colorado",
  "country": "US",
  "state": "CO",
  "city": "Cañon City",
  "icao": "1V6",
  "lat": 38.4284,
  "lon": -105.1061,
  "radar": "KPUX",
  "radar_station": "KPUX",
  "notes": null,
  "name": "Skydive Colorado",
  "key": "skydive-colorado"
},
"skydive-cross-keys": {
  "burble_dz_id": 561,
  "burble_public_url": "https://dzm.burblesoft.com/jumper_manifest_public?dz_id=561",
  "label": "Skydive Cross Keys",
  "country": "US",
  "state": "NJ",
  "city": "Williamstown",
  "icao": "17N",
  "lat": 39.7056,
  "lon": -75.0339,
  "radar": "KDIX",
  "radar_station": "KDIX",
  "notes": null,
  "name": "Skydive Cross Keys",
  "key": "skydive-cross-keys"
},
"skydive-danielson": {
  "burble_dz_id": 4661,
  "burble_public_url": "https://dzm.burblesoft.com/jumper_manifest_public?dz_id=4661",
  "label": "Skydive Danielson",
  "country": "US",
  "state": "CT",
  "city": "Danielson",
  "icao": "LZD",
  "lat": 41.8198,
  "lon": -71.9010,
  "radar": "KBOX",
  "radar_station": "KBOX",
  "notes": null,
  "name": "Skydive Danielson",
  "key": "skydive-danielson"
},
"skydive-east-tennessee": {
  "burble_dz_id": 14631,
  "burble_public_url": "https://dzm.burblesoft.com/jumper_manifest_public?dz_id=14631",
  "label": "Skydive East Tennessee",
  "country": "US",
  "state": "TN",
  "city": "Lenoir City",
  "icao": "TN44",
  "lat": 35.7881,
  "lon": -84.2466,
  "radar": "KMRX",
  "radar_station": "KMRX",
  "notes": null,
  "name": "Skydive East Tennessee",
  "key": "skydive-east-tennessee"
},
"skydive-elsinore": {
  "burble_dz_id": 189,
  "burble_public_url": "https://dzm.burblesoft.com/jumper_manifest_public?dz_id=189",
  "label": "Skydive Elsinore",
  "country": "US",
  "state": "CA",
  "city": "Elsinore",
  "icao": "F70",
  "lat": 33.6267,
  "lon": -117.3339,
  "radar": "KSOX",
  "radar_station": "KSOX",
  "notes": null,
  "name": "Skydive Elsinore",
  "key": "skydive-elsinore"
},
"skydive-fargo": {
  "burble_dz_id": 911,
  "burble_public_url": "https://dzm.burblesoft.com/jumper_manifest_public?dz_id=911",
  "label": "Skydive Fargo",
  "country": "US",
  "state": "ND",
  "city": "West Fargo",
  "icao": "D54",
  "lat": 46.8903,
  "lon": -96.9004,
  "radar": "KMVX",
  "radar_station": "KMVX",
  "notes": null,
  "name": "Skydive Fargo",
  "key": "skydive-fargo"
},
"skydive-georgia": {
  "burble_dz_id": 18,
  "burble_public_url": "https://dzm.burblesoft.com/jumper_manifest_public?dz_id=18",
  "label": "Skydive Georgia",
  "country": "US",
  "state": "GA",
  "city": "Cedartown",
  "icao": "6GE1",
  "lat": 34.0167,
  "lon": -85.1500,
  "radar": "KFFC",
  "radar_station": "KFFC",
  "notes": null,
  "name": "Skydive Georgia",
  "key": "skydive-georgia"
},
"skydive-houston": {
  "burble_dz_id": 3563,
  "burble_public_url": "https://dzm.burblesoft.com/jumper_manifest_public?dz_id=3563",
  "label": "Skydive Houston",
  "country": "US",
  "state": "TX",
  "city": "Waller",
  "icao": "TS67",
  "lat": 29.9936,
  "lon": -95.9299,
  "radar": "KHGX",
  "radar_station": "KHGX",
  "notes": null,
  "name": "Skydive Houston",
  "key": "skydive-houston"
},
"skydive-indianapolis": {
  "burble_dz_id": 36,
  "burble_public_url": "https://dzm.burblesoft.com/jumper_manifest_public?dz_id=36",
  "label": "Skydive Indianapolis",
  "country": "US",
  "state": "IN",
  "city": "Frankfort",
  "icao": "KFKR",
  "lat": 40.2734,
  "lon": -86.5621,
  "radar": "KIND",
  "radar_station": "KIND",
  "notes": null,
  "name": "Skydive Indianapolis",
  "key": "skydive-indianapolis"
},
"skydive-midwest": {
  "burble_dz_id": 359,
  "burble_public_url": "https://dzm.burblesoft.com/jumper_manifest_public?dz_id=359",
  "label": "Skydive Midwest",
  "country": "US",
  "state": "WI",
  "city": "Racine",
  "icao": "KRAC",
  "lat": 42.7603,
  "lon": -87.8152,
  "radar": "KMKX",
  "radar_station": "KMKX",
  "notes": null,
  "name": "Skydive Midwest",
  "key": "skydive-midwest"
},
"skydive-milwaukee-sky-knights-spc": {
  "burble_dz_id": 11651,
  "burble_public_url": "https://dzm.burblesoft.com/jumper_manifest_public?dz_id=11651",
  "label": "Skydive Milwaukee / Sky Knights SPC",
  "country": "US",
  "state": "WI",
  "city": "East Troy",
  "icao": "K57C",
  "lat": 42.7972,
  "lon": -88.3726,
  "radar": "KMKX",
  "radar_station": "KMKX",
  "notes": null,
  "name": "Skydive Milwaukee / Sky Knights SPC",
  "key": "skydive-milwaukee-sky-knights-spc"
},

"skydive-monroe": {
  "burble_dz_id": 261,
  "burble_public_url": "https://dzm.burblesoft.com/jumper_manifest_public?dz_id=261",
  "label": "Skydive Monroe",
  "country": "US",
  "state": "GA",
  "city": "Monroe",
  "icao": "KD73",
  "lat": 33.7811,
  "lon": -83.6924,
  "radar": "KFFC",
  "radar_station": "KFFC",
  "notes": null,
  "name": "Skydive Monroe",
  "key": "skydive-monroe"
},
"skydive-mountain-city": {
  "burble_dz_id": 12061,
  "burble_public_url": "https://dzm.burblesoft.com/jumper_manifest_public?dz_id=12061",
  "label": "Skydive Mountain City",
  "country": "US",
  "state": "TN",
  "city": "Mountain City",
  "icao": "6A4",
  "lat": 36.41778,
  "lon": -81.82500,
  "radar": "KMRX",
  "radar_station": "KMRX",
  "notes": null,
  "name": "Skydive Mountain City",
  "key": "skydive-mountain-city"
},
"skydive-nepa": {
  "burble_dz_id": 12251,
  "burble_public_url": "https://dzm.burblesoft.com/jumper_manifest_public?dz_id=12251",
  "label": "Skydive NEPA",
  "country": "US",
  "state": "PA",
  "city": "Factoryville",
  "icao": "KWBW",
  "lat": 41.29750,
  "lon": -75.85120,
  "radar": "KBGM",
  "radar_station": "KBGM",
  "notes": null,
  "name": "Skydive NEPA",
  "key": "skydive-nepa"
},
"skydive-new-england": {
  "burble_dz_id": 2921,
  "burble_public_url": "https://dzm.burblesoft.com/jumper_manifest_public?dz_id=2921",
  "label": "Skydive New England",
  "country": "US",
  "state": "NH",
  "city": "Lebanon",
  "icao": "KLEB",
  "lat": 43.62610,
  "lon": -72.30420,
  "radar": "KCXX",
  "radar_station": "KCXX",
  "notes": null,
  "name": "Skydive New England",
  "key": "skydive-new-england"
},
"skydive-northstar-llc": {
  "burble_dz_id": 13261,
  "burble_public_url": "https://dzm.burblesoft.com/jumper_manifest_public?dz_id=13261",
  "label": "Skydive Northstar LLC",
  "country": "US",
  "state": "WI",
  "city": "Eastman",
  "icao": "KETB",
  "lat": 43.4222,
  "lon": -90.7054,
  "radar": "KARX",
  "radar_station": "KARX",
  "notes": null,
  "name": "Skydive Northstar LLC",
  "key": "skydive-northstar-llc"
},
"skydive-orange": {
  "burble_dz_id": 390,
  "burble_public_url": "https://dzm.burblesoft.com/jumper_manifest_public?dz_id=390",
  "label": "Skydive Orange",
  "country": "US",
  "state": "VA",
  "city": "Orange",
  "icao": "KOMH",
  "lat": 38.2489,
  "lon": -78.0456,
  "radar": "KLWX",
  "radar_station": "KLWX",
  "notes": null,
  "name": "Skydive Orange",
  "key": "skydive-orange"
},
"skydive-paraclete-xp": {
  "burble_dz_id": 125,
  "burble_public_url": "https://dzm.burblesoft.com/jumper_manifest_public?dz_id=125",
  "label": "Skydive Paraclete XP",
  "country": "US",
  "state": "NC",
  "city": "Raeford",
  "icao": "KHFF",
  "lat": 35.0363,
  "lon": -79.4970,
  "radar": "KRAX",
  "radar_station": "KRAX",
  "notes": null,
  "name": "Skydive Paraclete XP",
  "key": "skydive-paraclete-xp"
},
"skydive-pennsylvania": {
  "burble_dz_id": 3293,
  "burble_public_url": "https://dzm.burblesoft.com/jumper_manifest_public?dz_id=3293",
  "label": "Skydive Pennsylvania",
  "country": "US",
  "state": "PA",
  "city": "Grove City",
  "icao": "29D",
  "lat": 41.1466,
  "lon": -80.1673,
  "radar": "KPBZ",
  "radar_station": "KPBZ",
  "notes": null,
  "name": "Skydive Pennsylvania",
  "key": "skydive-pennsylvania"
},
"skydive-perris-school": {
  "burble_dz_id": 99,
  "burble_public_url": "https://dzm.burblesoft.com/jumper_manifest_public?dz_id=99",
  "label": "Skydive Perris School",
  "country": "US",
  "state": "CA",
  "city": "Perris",
  "icao": "KCPM",
  "lat": 33.8890,
  "lon": -117.6050,
  "radar": "KSOX",
  "radar_station": "KSOX",
  "notes": null,
  "name": "Skydive Perris School",
  "key": "skydive-perris-school"
},
"skydive-philadelphia": {
  "burble_dz_id": 51,
  "burble_public_url": "https://dzm.burblesoft.com/jumper_manifest_public?dz_id=51",
  "label": "Skydive Philadelphia",
  "country": "US",
  "state": "NJ",
  "city": "Williamstown",
  "icao": "17N",
  "lat": 39.7056,
  "lon": -75.0339,
  "radar": "KDIX",
  "radar_station": "KDIX",
  "notes": null,
  "name": "Skydive Philadelphia",
  "key": "skydive-philadelphia"
},
"skydive-puerto-rico": {
  "burble_dz_id": 4843,
  "burble_public_url": "https://dzm.burblesoft.com/jumper_manifest_public?dz_id=4843",
  "label": "Skydive Puerto Rico",
  "country": "PR",
  "state": "PR",
  "city": "Arecibo",
  "icao": "TJAB",
  "lat": 18.4500,
  "lon": -66.6750,
  "radar": "TJUA",
  "radar_station": "TJUA",
  "notes": null,
  "name": "Skydive Puerto Rico",
  "key": "skydive-puerto-rico"
},
"skydive-raleigh": {
  "burble_dz_id": 14056,
  "burble_public_url": "https://dzm.burblesoft.com/jumper_manifest_public?dz_id=14056",
  "label": "Skydive Raleigh",
  "country": "US",
  "state": "NC",
  "city": "Roxboro",
  "icao": "KTDF",
  "lat": 36.2849,
  "lon": -78.9842,
  "radar": "KRAX",
  "radar_station": "KRAX",
  "notes": null,
  "name": "Skydive Raleigh",
  "key": "skydive-raleigh"
},
"skydive-san-diego": {
  "burble_dz_id": 3393,
  "burble_public_url": "https://dzm.burblesoft.com/jumper_manifest_public?dz_id=3393",
  "label": "Skydive San Diego",
  "country": "US",
  "state": "CA",
  "city": "San Diego",
  "icao": "KSDM",
  "lat": 32.5723,
  "lon": -116.9802,
  "radar": "KNKX",
  "radar_station": "KNKX",
  "notes": null,
  "name": "Skydive San Diego",
  "key": "skydive-san-diego"
},
"skydive-sebastian": {
  "burble_dz_id": 396,
  "burble_public_url": "https://dzm.burblesoft.com/jumper_manifest_public?dz_id=396",
  "label": "Skydive Sebastian",
  "country": "US",
  "state": "FL",
  "city": "Sebastian",
  "icao": "X26",
  "lat": 27.8128,
  "lon": -80.4956,
  "radar": "KMLB",
  "radar_station": "KMLB",
  "notes": null,
  "name": "Skydive Sebastian",
  "key": "skydive-sebastian"
},
"skydive-seneca-lake": {
  "burble_dz_id": 13926,
  "burble_public_url": "https://dzm.burblesoft.com/jumper_manifest_public?dz_id=13926",
  "label": "Skydive Seneca Lake",
  "country": "US",
  "state": "NY",
  "city": "Ovid",
  "icao": "D48",
  "lat": 42.6764,
  "lon": -76.7966,
  "radar": "KBUF",
  "radar_station": "KBUF",
  "notes": null,
  "name": "Skydive Seneca Lake",
  "key": "skydive-seneca-lake"
},
"skydive-shenandoah": {
  "burble_dz_id": 5255,
  "burble_public_url": "https://dzm.burblesoft.com/jumper_manifest_public?dz_id=5255",
  "label": "Skydive Shenandoah",
  "country": "US",
  "state": "VA",
  "city": "New Market",
  "icao": "8W2",
  "lat": 38.6542,
  "lon": -78.7097,
  "radar": "KFCX",
  "radar_station": "KFCX",
  "notes": null,
  "name": "Skydive Shenandoah",
  "key": "skydive-shenandoah"
},
"skydive-skydown": {
  "burble_dz_id": 14601,
  "burble_public_url": "https://dzm.burblesoft.com/jumper_manifest_public?dz_id=14601",
  "label": "SKYDIVE SKYDOWN",
  "country": "US",
  "state": "PA",
  "city": "Kutztown",
  "icao": "9N8",
  "lat": 40.5217,
  "lon": -75.7750,
  "radar": "KDIX",
  "radar_station": "KDIX",
  "notes": null,
  "name": "SKYDIVE SKYDOWN",
  "key": "skydive-skydown"
},
"skydive-south-boston": {
  "burble_dz_id": 8301,
  "burble_public_url": "https://dzm.burblesoft.com/jumper_manifest_public?dz_id=8301",
  "label": "Skydive South Boston",
  "country": "US",
  "state": "VA",
  "city": "South Boston",
  "icao": "W78",
  "lat": 36.7097,
  "lon": -78.8486,
  "radar": "KFCX",
  "radar_station": "KFCX",
  "notes": null,
  "name": "Skydive South Boston",
  "key": "skydive-south-boston"
},
"skydive-stl": {
  "burble_dz_id": 8171,
  "burble_public_url": "https://dzm.burblesoft.com/jumper_manifest_public?dz_id=8171",
  "label": "Skydive STL",
  "country": "US",
  "state": "IL",
  "city": "Alton",
  "icao": "KALN",
  "lat": 38.8903,
  "lon": -90.0460,
  "radar": "KLSX",
  "radar_station": "KLSX",
  "notes": null,
  "name": "Skydive STL",
  "key": "skydive-stl"
},
"skydive-tecumseh": {
  "burble_dz_id": 7,
  "burble_public_url": "https://dzm.burblesoft.com/jumper_manifest_public?dz_id=7",
  "label": "Skydive Tecumseh",
  "country": "US",
  "state": "MI",
  "city": "Tecumseh",
  "icao": "KTEW",
  "lat": 42.5658,
  "lon": -84.4233,
  "radar": "KDTX",
  "radar_station": "KDTX",
  "notes": null,
  "name": "Skydive Tecumseh",
  "key": "skydive-tecumseh"
},
"skydive-tennessee": {
  "burble_dz_id": 15,
  "burble_public_url": "https://dzm.burblesoft.com/jumper_manifest_public?dz_id=15",
  "label": "Skydive Tennessee",
  "country": "US",
  "state": "TN",
  "city": "Tullahoma",
  "icao": "KTHA",
  "lat": 35.3801,
  "lon": -86.2464,
  "radar": "KOHX",
  "radar_station": "KOHX",
  "notes": null,
  "name": "Skydive Tennessee",
  "key": "skydive-tennessee"
},
"skydive-the-falls": {
  "burble_dz_id": 6891,
  "burble_public_url": "https://dzm.burblesoft.com/jumper_manifest_public?dz_id=6891",
  "label": "Skydive the Falls",
  "country": "US",
  "state": "NY",
  "city": "Niagara Falls",
  "icao": "KIAG",
  "lat": 43.1073,
  "lon": -78.9462,
  "radar": "KBUF",
  "radar_station": "KBUF",
  "notes": null,
  "name": "Skydive the Falls",
  "key": "skydive-the-falls"
},
"skydive-the-gulf": {
  "burble_dz_id": 8281,
  "burble_public_url": "https://dzm.burblesoft.com/jumper_manifest_public?dz_id=8281",
  "label": "Skydive the Gulf",
  "country": "US",
  "state": "AL",
  "city": "Foley",
  "icao": "5R4",
  "lat": 30.4663,
  "lon": -87.8770,
  "radar": "KMOB",
  "radar_station": "KMOB",
  "notes": null,
  "name": "Skydive the Gulf",
  "key": "skydive-the-gulf"
},
"skydive-the-ranch-school": {
  "burble_dz_id": 3451,
  "burble_public_url": "https://dzm.burblesoft.com/jumper_manifest_public?dz_id=3451",
  "label": "Skydive the Ranch School",
  "country": "US",
  "state": "NY",
  "city": "Gardiner",
  "icao": "NY1",
  "lat": 41.6790,
  "lon": -74.1446,
  "radar": "KALY",
  "radar_station": "KALY",
  "notes": null,
  "name": "Skydive the Ranch School",
  "key": "skydive-the-ranch-school"
},
"skydive-the-rock": {
  "burble_dz_id": 861,
  "burble_public_url": "https://dzm.burblesoft.com/jumper_manifest_public?dz_id=861",
  "label": "Skydive The Rock",
  "country": "US",
  "state": "WI",
  "city": "Janesville",
  "icao": "KJVL",
  "lat": 42.6203,
  "lon": -89.0416,
  "radar": "KMKX",
  "radar_station": "KMKX",
  "notes": null,
  "name": "Skydive The Rock",
  "key": "skydive-the-rock"
},
"skydive-the-volcano": {
  "burble_dz_id": 13686,
  "burble_public_url": "https://dzm.burblesoft.com/jumper_manifest_public?dz_id=13686",
  "label": "Skydive The Volcano",
  "country": "US",
  "state": "HI",
  "city": "Hilo",
  "icao": "PHTO",
  "lat": 19.7203,
  "lon": -155.0485,
  "radar": "PHKM",
  "radar_station": "PHKM",
  "notes": null,
  "name": "Skydive The Volcano",
  "key": "skydive-the-volcano"
},
"skydive-the-wasatch": {
  "burble_dz_id": 48,
  "burble_public_url": "https://dzm.burblesoft.com/jumper_manifest_public?dz_id=48",
  "label": "Skydive the Wasatch",
  "country": "US",
  "state": "UT",
  "city": "Heber City",
  "icao": "KHCR",
  "lat": 40.4818,
  "lon": -111.4288,
  "radar": "KMTX",
  "radar_station": "KMTX",
  "notes": null,
  "name": "Skydive the Wasatch",
  "key": "skydive-the-wasatch"
},
"skydive-twin-cities": {
  "burble_dz_id": 416,
  "burble_public_url": "https://dzm.burblesoft.com/jumper_manifest_public?dz_id=416",
  "label": "Skydive Twin Cities",
  "country": "US",
  "state": "WI",
  "city": "Baldwin",
  "icao": "21D",
  "lat": 44.9666,
  "lon": -92.3724,
  "radar": "KMPX",
  "radar_station": "KMPX",
  "notes": null,
  "name": "Skydive Twin Cities",
  "key": "skydive-twin-cities"
},
"skydive-utah": {
  "burble_dz_id": 385,
  "burble_public_url": "https://dzm.burblesoft.com/jumper_manifest_public?dz_id=385",
  "label": "Skydive Utah",
  "country": "US",
  "state": "UT",
  "city": "Ogden",
  "icao": "KOGD",
  "lat": 41.1959,
  "lon": -112.0120,
  "radar": "KMTX",
  "radar_station": "KMTX",
  "notes": null,
  "name": "Skydive Utah",
  "key": "skydive-utah"
},
"skydive-west-plains": {
  "burble_dz_id": 2661,
  "burble_public_url": "https://dzm.burblesoft.com/jumper_manifest_public?dz_id=2661",
  "label": "Skydive West Plains",
  "country": "US",
  "state": "MO",
  "city": "West Plains",
  "icao": "KUNO",
  "lat": 36.8781,
  "lon": -91.9027,
  "radar": "KSGF",
  "radar_station": "KSGF",
  "notes": null,
  "name": "Skydive West Plains",
  "key": "skydive-west-plains"
},
"skydive-windy-city": {
  "burble_dz_id": 12691,
  "burble_public_url": "https://dzm.burblesoft.com/jumper_manifest_public?dz_id=12691",
  "label": "Skydive Windy City",
  "country": "US",
  "state": "IN",
  "city": "Michigan City",
  "icao": "KMGC",
  "lat": 41.7033,
  "lon": -86.8212,
  "radar": "KLOT",
  "radar_station": "KLOT",
  "notes": "Located approximately 3 miles from Lake Michigan and 30 miles from downtown Chicago",
  "name": "Skydive Windy City",
  "key": "skydive-windy-city"
},
"skydivekc": {
  "burble_dz_id": 267,
  "burble_public_url": "https://dzm.burblesoft.com/jumper_manifest_public?dz_id=267",
  "label": "SkydiveKC",
  "country": "US",
  "state": "MO",
  "city": "Butler",
  "icao": "KBUM",
  "lat": 38.28977,
  "lon": -94.34013,
  "radar": "KEAX",
  "radar_station": "KEAX",
  "notes": null,
  "name": "SkydiveKC",
  "key": "skydivekc"
},
"skydivetc": {
  "burble_dz_id": 14231,
  "burble_public_url": "https://dzm.burblesoft.com/jumper_manifest_public?dz_id=14231",
  "label": "SkydiveTC",
  "country": "US",
  "state": "MN",
  "city": "Stanton",
  "icao": "KSYN",
  "lat": 44.4756,
  "lon": -92.8433,
  "radar": "KMPX",
  "radar_station": "KMPX",
  "notes": null,
  "name": "SkydiveTC",
  "key": "skydivetc"
},
"start-skydiving-llc": {
  "burble_dz_id": 70,
  "burble_public_url": "https://dzm.burblesoft.com/jumper_manifest_public?dz_id=70",
  "label": "Start Skydiving, LLC",
  "country": "US",
  "state": "OH",
  "city": "Middletown",
  "icao": "KMWO",
  "lat": 39.5317,
  "lon": -84.3953,
  "radar": "KILN",
  "radar_station": "KILN",
  "notes": null,
  "name": "Start Skydiving, LLC",
  "key": "start-skydiving-llc"
},
"texas-skydiving": {
  "burble_dz_id": 2401,
  "burble_public_url": "https://dzm.burblesoft.com/jumper_manifest_public?dz_id=2401",
  "label": "Texas Skydiving",
  "country": "US",
  "state": "TX",
  "city": "Caddo Mills",
  "icao": "7F3",
  "lat": 33.0362,
  "lon": -96.2431,
  "radar": "KFWS",
  "radar_station": "KFWS",
  "notes": null,
  "name": "Texas Skydiving",
  "key": "texas-skydiving"
},
"ultimate-skydiving-adventures": {
  "burble_dz_id": 12431,
  "burble_public_url": "https://dzm.burblesoft.com/jumper_manifest_public?dz_id=12431",
  "label": "Ultimate Skydiving Adventures",
  "country": "US",
  "state": "IL",
  "city": "Frankfort",
  "icao": "KDKB",
  "lat": 41.9338,
  "lon": -88.7057,
  "radar": "KLOT",
  "radar_station": "KLOT",
  "notes": null,
  "name": "Ultimate Skydiving Adventures",
  "key": "ultimate-skydiving-adventures"
},
"uspa": {
  "burble_dz_id": 12711,
  "burble_public_url": "https://dzm.burblesoft.com/jumper_manifest_public?dz_id=12711",
  "label": "USPA",
  "country": "US",
  "state": "VA",
  "city": "Fredericksburg",
  "icao": null,
  "lat": 38.3032,
  "lon": -77.4605,
  "radar": null,
  "radar_station": null,
  "notes": "United States Parachute Association headquarters; not a drop zone",
  "name": "USPA",
  "key": "uspa"
},
"virginia-skydiving-center": {
  "burble_dz_id": 5932,
  "burble_public_url": "https://dzm.burblesoft.com/jumper_manifest_public?dz_id=5932",
  "label": "Virginia Skydiving Center",
  "country": "US",
  "state": "VA",
  "city": "Chesapeake",
  "icao": "KPVG",
  "lat": 36.7802,
  "lon": -76.4488,
  "radar": "KAKQ",
  "radar_station": "KAKQ",
  "notes": null,
  "name": "Virginia Skydiving Center",
  "key": "virginia-skydiving-center"
},
"wisconsin-skydiving-center": {
  "burble_dz_id": 43,
  "burble_public_url": "https://dzm.burblesoft.com/jumper_manifest_public?dz_id=43",
  "label": "Wisconsin Skydiving Center",
  "country": "US",
  "state": "WI",
  "city": "Racine",
  "icao": "C89",
  "lat": 42.7039,
  "lon": -87.9583,
  "radar": "KMKX",
  "radar_station": "KMKX",
  "notes": null,
  "name": "Wisconsin Skydiving Center",
  "key": "wisconsin-skydiving-center"
},
"wnyskydiving": {
  "burble_dz_id": 257,
  "burble_public_url": "https://dzm.burblesoft.com/jumper_manifest_public?dz_id=257",
  "label": "WNYSkydiving",
  "country": "US",
  "state": "NY",
  "city": "Olean",
  "icao": "KOLE",
  "lat": 42.2413,
  "lon": -78.3716,
  "radar": "KBUF",
  "radar_station": "KBUF",
  "notes": null,
  "name": "WNYSkydiving",
  "key": "wnyskydiving"
}
}
